[
  {
    "name": "Vanessa Agudelo",
    "member": true,
    "level": "city",
    "position": "City Council",
    "city": "Peekskill",
    "state": "NY",
    "lat": 41.2901,
    "lon": -73.9204,
    "url": "",
    "years": [ 2017 ]
  },
  {
    "name": "Scott Alberts",
    "member": true,
    "level": "township",
    "position": "Treasurer",
    "city": "Upper Darby",
    "state": "PA",
    "lat": 39.9579,
    "lon": -75.3007,
    "url": "",
    "years": [ 2017 ]
  },
  {
    "name": "Lee Carter",
    "member": true,
    "level": "state",
    "position": "Virginia House of Delegates for District 50",
    "city": "Richmond",
    "state": "VA",
    "lat": 37.5407,
    "lon": -77.4360,
    "url": "",
    "years": [ 2017 ]
  },
  {
    "name": "Charles Decker",
    "member": true,
    "level": "city",
    "position": "Alderman for District 9",
    "city": "New Haven",
    "state": "CT",
    "lat": 41.3083,
    "lon": -72.9279,
    "url": "",
    "years": [ 2017 ]
  },
  {
    "name": "Ben Ewen-Campen",
    "member": true,
    "level": "city",
    "position": "Board of Aldermen - Ward 2",
    "city": "Somerville",
    "state": "MA",
    "lat": 42.3876,
    "lon": -71.0995,
    "url": "",
    "years": [ 2017 ]
  },
  {
    "name": "Kara Gloe",
    "member": true,
    "level": "city",
    "position": "School Board",
    "city": "Moorhead",
    "state": "MN",
    "lat": 46.8738,
    "lon": -96.7678,
    "url": "",
    "years": [ 2017 ]
  },
  {
    "name": "Ross Grooters",
    "member": true,
    "level": "city",
    "position": "City Council",
    "city": "Pleasant Hill",
    "state": "IA",
    "lat": 41.5874,
    "lon": -93.5196,
    "url": "",
    "years": [ 2017 ]
  },
  {
    "name": "Denise Joy",
    "member": true,
    "level": "city",
    "position": "City Council for Ward 3",
    "city": "Billings",
    "state": "MT",
    "lat": 45.7833,
    "lon": -108.5007,
    "url": "",
    "years": [ 2017 ]
  },
  {
    "name": "Denise Joy",
    "member": true,
    "level": "city",
    "position": "City Council for Ward 3",
    "city": "Billings",
    "state": "MT",
    "lat": 45.7833,
    "lon": -108.5007,
    "url": "",
    "years": [ 2017 ]
  },
  {
    "name": "Kristin LaLonde",
    "member": true,
    "level": "city",
    "position": "City Commission",
    "city": "Mount Pleasant",
    "state": "MI",
    "lat": 43.5978,
    "lon": -84.7675,
    "url": "",
    "years": [ 2017 ]
  },
  {
    "name": "Brian Nowak",
    "member": true,
    "level": "city",
    "position": "Town Council",
    "city": "Cheektowaga",
    "state": "NY",
    "lat": 42.9026,
    "lon": -78.7446,
    "url": "",
    "years": [ 2017 ]
  },
  {
    "name": "Anita Prizio",
    "member": true,
    "level": "county",
    "position": "County Council - District 3",
    "city": "Alleghany",
    "state": "PA",
    "lat": 40.4451,
    "lon": -80.0088,
    "url": "",
    "years": [ 2017 ]
  },
  {
    "name": "Tristan Rader",
    "member": true,
    "level": "city",
    "position": "City Council",
    "city": "Lakewood",
    "state": "OH",
    "lat": 41.4820,
    "lon": -81.7982,
    "url": "",
    "years": [ 2017 ]
  },
  {
    "name": "Carlina Rivera",
    "member": true,
    "level": "city",
    "position": "City Council - District 2",
    "city": "New York City",
    "state": "NY",
    "lat": 40.7128,
    "lon": -74.0060,
    "url": "",
    "years": [ 2017 ]
  },
  {
    "name": "JT Scott",
    "member": true,
    "level": "city",
    "position": "Board of Aldermen - Ward 2",
    "city": "Somerville",
    "state": "MA",
    "lat": 42.3876,
    "lon": -71.0995,
    "url": "",
    "years": [ 2017 ]
  },
  {
    "name": "Seema Singh Perez",
    "member": true,
    "level": "city",
    "position": "City Council Third District",
    "city": "Knoxville",
    "state": "TN",
    "lat": 35.9606,
    "lon": -83.9207,
    "url": "",
    "years": [ 2017 ]
  },
  {
    "name": "Joel Sipress",
    "member": true,
    "level": "city",
    "position": "City Council",
    "city": "Duluth",
    "state": "MN",
    "lat": 46.7867,
    "lon": -92.1005,
    "url": "",
    "years": [ 2017 ]
  },
  {
    "name": "Mik Pappas",
    "member": false,
    "level": "district",
    "position": "31st Magisterial District Judge",
    "city": "Pittsburgh",
    "state": "PA",
    "lat": 40.4406,
    "lon": -79.9959,
    "url": "",
    "years": [ 2017 ]
  },
  {
    "name": "Nikuyah Walker",
    "member": false,
    "level": "city",
    "position": "City Council",
    "city": "Charlottesville",
    "state": "VA",
    "lat": 38.0293,
    "lon": -78.4767,
    "url": "",
    "years": [ 2017 ]
  },
  {
    "name": "Brandon Johnson",
    "member": false,
    "level": "city",
    "position": "City Council",
    "city": "Wichita",
    "state": "KS",
    "lat": 37.6872,
    "lon": -97.3301,
    "url": "",
    "years": [ 2017 ]
  },
  {
    "name": "Larry Krasner",
    "member": false,
    "level": "district",
    "position": "District Attorney",
    "city": "Philadelphia",
    "state": "PA",
    "lat": 39.9526,
    "lon": -75.1652,
    "url": "",
    "years": [ 2017 ]
  }
]